[{"name":"Vitrac","lat":44.842075,"lon":1.238043,"level":2},{"name":"Donzenac","lat":45.247356,"lon":1.52853,"level":2},{"name":"Davignac","lat":45.464886,"lon":2.109973,"level":2},{"name":"Saint-Julien-Puy-Lavèze","lat":45.675591,"lon":2.689495,"level":2},{"name":"Jozerand","lat":46.017818,"lon":3.119141,"level":2},{"name":"Besson","lat":46.458,"lon":3.266682,"level":2},{"name":"École-Valentin","lat":47.27681,"lon":5.995785,"level":2},{"name":"Pomoy","lat":47.663647,"lon":6.345603,"level":2},{"name":"Cornimont","lat":47.976566,"lon":6.832944,"level":2},{"name":"Sélestat","lat":48.232288,"lon":7.407177,"level":2},{"name":"Lampertheim","lat":48.663811,"lon":7.673055,"level":2},{"name":"Bietigheim","lat":48.886269,"lon":8.281342,"level":2},{"name":"Rauenberg","lat":49.262066,"lon":8.667421,"level":2},{"name":"Bensheim","lat":49.711254,"lon":8.597459,"level":2},{"name":"Francfort-sur-le-Main","lat":50.170296,"lon":8.610535,"level":1},{"name":"Reiskirchen","lat":50.610004,"lon":8.826227,"level":2},{"name":"Breitenbach am Herzberg","lat":50.79641,"lon":9.48322,"level":3},{"name":"Söhrewald","lat":51.252026,"lon":9.517513,"level":2},{"name":"Nörten-Hardenberg","lat":51.641891,"lon":9.92159,"level":2},{"name":"Holle","lat":52.062794,"lon":10.193446,"level":2},{"name":"Isernhagen","lat":52.470158,"lon":9.856735,"level":2},{"name":"Bad Fallingbostel","lat":52.925396,"lon":9.822691,"level":2},{"name":"Seevetal","lat":53.361393,"lon":10.036941,"level":2},{"name":"Pölitz","lat":53.762047,"lon":10.381896,"level":2},{"name":"Neustadt en Holstein","lat":54.130173,"lon":10.832055,"level":2},{"name":"Guldborgsund Kommune","lat":54.933727,"lon":11.959574,"level":2},{"name":"Køge Kommune","lat":55.381184,"lon":12.092824,"level":2},{"name":"Malmö kommun","lat":55.57637,"lon":12.821198,"level":2},{"name":"Helsingborg","lat":56.032917,"lon":12.786056,"level":1},{"name":"Laholms kommun","lat":56.48917,"lon":12.952582,"level":2},{"name":"Falkenbergs kommun","lat":56.899895,"lon":12.585221,"level":2},{"name":"Varbergs kommun","lat":57.30949,"lon":12.213237,"level":2},{"name":"Ale kommun","lat":57.922729,"lon":12.067176,"level":2},{"name":"Uddevalla kommun","lat":58.357571,"lon":11.81326,"level":2},{"name":"Tanums kommun","lat":58.731319,"lon":11.334099,"level":2},{"name":"Sarpsborg","lat":59.190716,"lon":11.199846,"level":3},{"name":"Vestby","lat":59.569607,"lon":10.722728,"level":2},{"name":"Lillestrøm","lat":59.997295,"lon":11.039287,"level":2},{"name":"Eidsvoll","lat":60.446083,"lon":11.242272,"level":2},{"name":"Elverum","lat":60.883469,"lon":11.495704,"level":2},{"name":"Stor-Elvdal","lat":61.324596,"lon":11.255741,"level":2},{"name":"Alvdal","lat":62.178509,"lon":10.616078,"level":2},{"name":"Tynset","lat":62.606041,"lon":10.262352,"level":2},{"name":"Midtre Gauldal","lat":63.065262,"lon":10.289075,"level":2},{"name":"Levanger","lat":63.567307,"lon":10.952702,"level":2},{"name":"Steinkjer","lat":63.968681,"lon":11.416191,"level":2},{"name":"Snåsa","lat":64.253601,"lon":12.215845,"level":2},{"name":"Grong","lat":64.665802,"lon":12.675237,"level":2},{"name":"Namsskogan","lat":65.038994,"lon":13.282567,"level":2},{"name":"Grane","lat":65.486397,"lon":13.411464,"level":2},{"name":"Vefsn","lat":65.984954,"lon":13.271077,"level":2},{"name":"Rana","lat":66.292656,"lon":14.088717,"level":2},{"name":"Saltdal","lat":66.903221,"lon":15.30977,"level":2},{"name":"Sørfold","lat":67.348999,"lon":15.579078,"level":2},{"name":"Hamarøy","lat":67.781197,"lon":15.922735,"level":2},{"name":"Lødingen","lat":68.415329,"lon":16.015491,"level":2},{"name":"Vestvågøy","lat":68.224709,"lon":13.731797,"level":2},{"name":"Hadsel","lat":68.411346,"lon":14.84447,"level":2},{"name":"Narvik","lat":68.532204,"lon":17.300882,"level":2},{"name":"Bardu","lat":68.832283,"lon":18.243099,"level":2},{"name":"Balsfjord","lat":69.170982,"lon":19.101706,"level":2},{"name":"Tromsø","lat":69.622917,"lon":18.94445,"level":2},{"name":"Kåfjord","lat":69.602959,"lon":20.507914,"level":2},{"name":"Kvænangen","lat":69.896355,"lon":21.619867,"level":2},{"name":"Alta","lat":70.093765,"lon":22.81321,"level":2},{"name":"Hammerfest","lat":70.234009,"lon":24.080608,"level":2},{"name":"Porsanger","lat":70.533127,"lon":25.10141,"level":2},{"name":"Nordkapp","lat":70.95948,"lon":25.69631,"level":2},{"name":"Karasjok","lat":69.620399,"lon":25.300028,"level":2},{"name":"Kautokeino","lat":69.377235,"lon":24.203791,"level":2},{"name":"Enontekiö","lat":68.411652,"lon":23.904558,"level":2},{"name":"Muonio","lat":67.963554,"lon":23.685347,"level":2},{"name":"Kolari","lat":67.074203,"lon":24.019169,"level":2},{"name":"Pello","lat":66.616066,"lon":23.888605,"level":2},{"name":"Tornio","lat":66.165199,"lon":23.914761,"level":2},{"name":"Kalix kommun","lat":65.851097,"lon":23.12026,"level":2},{"name":"Luleå","lat":65.673485,"lon":22.102163,"level":2},{"name":"Piteå kommun","lat":65.283318,"lon":21.442074,"level":2},{"name":"Skellefteå kommun","lat":64.864342,"lon":21.015839,"level":2},{"name":"Robertsfors kommun","lat":64.014244,"lon":20.822353,"level":2},{"name":"Umeå kommun","lat":63.670753,"lon":19.977741,"level":2},{"name":"Arnäs distrikt","lat":63.304203,"lon":18.747896,"level":3},{"name":"Skogs distrikt","lat":62.956009,"lon":18.104839,"level":3},{"name":"Hässjö distrikt","lat":62.552711,"lon":17.630589,"level":3},{"name":"Gnarps distrikt","lat":62.117275,"lon":17.326904,"level":3},{"name":"Hudiksvalls kommun","lat":61.680431,"lon":17.037756,"level":2},{"name":"Söderhamns kommun","lat":61.226284,"lon":17.033529,"level":2},{"name":"Gävle kommun","lat":60.776554,"lon":17.071466,"level":2},{"name":"Tierps kommun","lat":60.359638,"lon":17.473833,"level":2},{"name":"Uppsala","lat":59.904404,"lon":17.610344,"level":1},{"name":"Sollentuna kommun","lat":59.473,"lon":17.915064,"level":2},{"name":"Södertälje","lat":59.053543,"lon":17.571217,"level":2},{"name":"Nyköping","lat":58.750347,"lon":16.913479,"level":2},{"name":"Norrköping","lat":58.579319,"lon":16.108034,"level":1},{"name":"Valdemarsviks kommun","lat":58.178177,"lon":16.536201,"level":2},{"name":"Västerviks kommun","lat":57.725914,"lon":16.511463,"level":2},{"name":"Oskarshamns kommun","lat":57.273369,"lon":16.44136,"level":2},{"name":"Kalmar","lat":56.821144,"lon":16.369101,"level":2},{"name":"Emmaboda kommun","lat":56.727409,"lon":15.563009,"level":2},{"name":"Växjö","lat":56.90094,"lon":14.796469,"level":2},{"name":"Älmhults kommun","lat":56.591343,"lon":14.198718,"level":2},{"name":"Östra Göinge kommun","lat":56.143009,"lon":14.103504,"level":2},{"name":"Höörs kommun","lat":55.821774,"lon":13.511735,"level":2},{"name":"Slagelse Kommune","lat":55.40015,"lon":11.38242,"level":2},{"name":"Kerteminde Kommune","lat":55.35361,"lon":10.56673,"level":2},{"name":"Fredericia Kommune","lat":55.52673,"lon":9.72615,"level":2},{"name":"Aabenraa Kommune","lat":54.89773,"lon":9.37701,"level":2},{"name":"Lottorf","lat":54.45948,"lon":9.57527,"level":2},{"name":"Großenaspe","lat":53.97245,"lon":9.94795,"level":2},{"name":"Hambourg","lat":53.46503,"lon":9.92678,"level":1},{"name":"Stadtgebiet Bremen","lat":53.076454,"lon":8.815116,"level":3},{"name":"Emstek","lat":52.806454,"lon":8.208685,"level":3},{"name":"Wallenhorst","lat":52.359406,"lon":8.038039,"level":2},{"name":"Münster","lat":52.00742,"lon":7.576609,"level":1},{"name":"Unna","lat":51.558109,"lon":7.664478,"level":2},{"name":"Wuppertal","lat":51.26273,"lon":7.117816,"level":1},{"name":"Siegburg","lat":50.815285,"lon":7.212445,"level":2},{"name":"Wittgert","lat":50.496281,"lon":7.733629,"level":2},{"name":"Idstein","lat":50.189651,"lon":8.262888,"level":2},{"name":"Pfungstadt","lat":49.804482,"lon":8.626472,"level":2},{"name":"Wattenheim","lat":49.527161,"lon":8.068214,"level":2},{"name":"Waldmohr","lat":49.373711,"lon":7.394402,"level":2},{"name":"Betting","lat":49.138412,"lon":6.802784,"level":2},{"name":"Marange-Silvange","lat":49.204102,"lon":6.112651,"level":2},{"name":"Haudainville","lat":49.108467,"lon":5.417377,"level":2},{"name":"Valmy","lat":49.061188,"lon":4.709859,"level":2},{"name":"Cormontreuil","lat":49.210247,"lon":4.057089,"level":2},{"name":"Château-Thierry","lat":49.07782,"lon":3.375967,"level":1},{"name":"Serris","lat":48.832932,"lon":2.787721,"level":2}]